{
    "nodes": [
        {
            "id": 0,
            "lat": 21.012915,
            "lng": 105.85667,
            "name": "Hà Nội"
        },
        {
            "id": 1,
            "lat": 20.250676,
            "lng": 105.974060,
            "name": "Ninh Bình"
        },
        {
            "id": 2,
            "lat": 19.806665,
            "lng": 105.784873,
            "name": "Thanh Hóa"
        },
        {
            "id": 3,
            "lat": 18.679585,
            "lng": 105.681335,
            "name": "Vinh"
        },
        {
            "id": 4,
            "lat": 18.340490,
            "lng": 105.897757,
            "name": "Hà Tĩnh"
        },
        {
            "id": 5,
            "lat": 16.815561,
            "lng": 107.104056,
            "name": "Đông Hà"
        },
        {
            "id": 6,
            "lat": 16.461381,
            "lng": 107.590169,
            "name": "Huế"
        },
        {
            "id": 7,
            "lat": 16.047079,
            "lng": 108.206230,
            "name": "Đà Nẵng"
        },
        {
            "id": 8,
            "lat": 15.121460,
            "lng": 108.804089,
            "name": "Quảng Ngãi"
        },
        {
            "id": 9,
            "lat": 13.775398,
            "lng": 109.223590,
            "name": "Quy Nhơn"
        },
        {
            "id": 10,
            "lat": 13.095720,
            "lng": 109.310333,
            "name": "Tuy Hòa"
        },
        {
            "id": 11,
            "lat": 12.248236,
            "lng": 109.189679,
            "name": "Nha Trang"
        },
        {
            "id": 12,
            "lat": 10.928891,
            "lng": 108.100487,
            "name": "Phan Thiết"
        },
        {
            "id": 13,
            "lat": 10.762622,
            "lng": 106.660172,
            "name": "TP.HCM"
        },
        {
            "id": 14,
            "lat": 10.346577,
            "lng": 107.084417,
            "name": "Vũng Tàu"
        }
    ],
    "edges": [
        {
            "from": 0,
            "to": 1,
            "distance": 93.7
        },
        {
            "from": 1,
            "to": 2,
            "distance": 140.0
        },
        {
            "from": 2,
            "to": 3,
            "distance": 180.0
        },
        {
            "from": 3,
            "to": 4,
            "distance": 50.0
        },
        {
            "from": 4,
            "to": 5,
            "distance": 280.0
        },
        {
            "from": 5,
            "to": 6,
            "distance": 70.0
        },
        {
            "from": 6,
            "to": 7,
            "distance": 108.0
        },
        {
            "from": 7,
            "to": 8,
            "distance": 130.0
        },
        {
            "from": 8,
            "to": 9,
            "distance": 210.0
        },
        {
            "from": 9,
            "to": 10,
            "distance": 120.0
        },
        {
            "from": 10,
            "to": 11,
            "distance": 120.0
        },
        {
            "from": 11,
            "to": 12,
            "distance": 230.0
        },
        {
            "from": 12,
            "to": 13,
            "distance": 200.0
        },
        {
            "from": 13,
            "to": 14,
            "distance": 95.0
        }
    ]
}